{"divisions":[{"areas":[],"isNowMerchantEnabled":false,"lat":49.0568,"timezoneIdentifier":"America/Los_Angeles","defaultLocale":"en","isNowCustomerEnabled":false,"isPresenceEnabled":false,"lng":-122.285,"timezoneOffsetInSeconds":-28800,"timezone":"Pacific Time (US & Canada)","country":"Canada","isReserveEnabled":false,"name":"Abbotsford","uuid":"7cdfc2aa-27f3-4d55-ac26-497b360e526b","id":"abbotsford"},{"areas":[],"isNowMerchantEnabled":false,"lat":32.4487,"timezoneIdentifier":"America/Chicago","defaultLocale":"en","isNowCustomerEnabled":false,"isPresenceEnabled":false,"lng":-99.7331,"timezoneOffsetInSeconds":-21600,"timezone":"Central Time (US & Canada)","country":"USA","isReserveEnabled":false,"name":"Abilene, TX","uuid":"003fc508-391c-4511-aa50-f0806f4ba12e","id":"abilene"},{"areas":[],"isNowMerchantEnabled":false,"lat":41.0814,"timezoneIdentifier":"America/New_York","defaultLocale":"en","isNowCustomerEnabled":false,"isPresenceEnabled":false,"lng":-81.519,"timezoneOffsetInSeconds":-18000,"timezone":"Eastern Time (US & Canada)","country":"USA","isReserveEnabled":false,"name":"Akron / Canton","uuid":"3011a6ea-b068-4e48-b922-9070536dd52d","id":"akron-canton"},{"areas":[],"isNowMerchantEnabled":false,"lat":42.6526,"timezoneIdentifier":"America/New_York","defaultLocale":"en","isNowCustomerEnabled":false,"isPresenceEnabled":false,"lng":-73.7562,"timezoneOffsetInSeconds":-18000,"timezone":"Eastern Time (US & Canada)","country":"USA","isReserveEnabled":false,"name":"Albany / Capital Region","uuid":"9323c81b-0692-4e6e-918c-0d415d0d360b","id":"albany-capital-region"},{"areas":[],"isNowMerchantEnabled":false,"lat":35.0845,"timezoneIdentifier":"America/Denver","defaultLocale":"en","isNowCustomerEnabled":false,"isPresenceEnabled":false,"lng":-106.651,"timezoneOffsetInSeconds":-25200,"timezone":"Mountain Time (US & Canada)","country":"USA","isReserveEnabled":false,"name":"Albuquerque","uuid":"7ff39ec3-a993-407d-be9a-a76135f8541f","id":"albuquerque"},{"areas":[],"isNowMerchantEnabled":false,"lat":40.6084,"timezoneIdentifier":"America/New_York","defaultLocale":"en","isNowCustomerEnabled":false,"isPresenceEnabled":false,"lng":-75.4902,"timezoneOffsetInSeconds":-18000,"timezone":"Eastern Time (US & Canada)","country":"USA","isReserveEnabled":true,"name":"Allentown / Reading","uuid":"fad97f32-74e7-465b-98f4-6dc4f278464a","id":"allentown-reading"},{"areas":[],"isNowMerchantEnabled":false,"lat":35.222,"timezoneIdentifier":"America/Chicago","defaultLocale":"en","isNowCustomerEnabled":false,"isPresenceEnabled":false,"lng":-101.831,"timezoneOffsetInSeconds":-21600,"timezone":"Central Time (US & Canada)","country":"USA","isReserveEnabled":false,"name":"Amarillo","uuid":"d458abb2-4d48-4b96-a2cb-bcaf5bfc3d6b","id":"amarillo"},{"areas":[],"isNowMerchantEnabled":false,"lat":61.2181,"timezoneIdentifier":"America/Juneau","defaultLocale":"en","isNowCustomerEnabled":false,"isPresenceEnabled":false,"lng":-149.9,"timezoneOffsetInSeconds":-32400,"timezone":"Alaska","country":"USA","isReserveEnabled":false,"name":"Anchorage","uuid":"7a33ed6e-c807-497e-b838-f25311a6bbc9","id":"anchorage"},{"areas":[],"isNowMerchantEnabled":true,"lat":42.2814,"timezoneIdentifier":"America/New_York","defaultLocale":"en","isNowCustomerEnabled":true,"isPresenceEnabled":false,"lng":-83.7483,"timezoneOffsetInSeconds":-18000,"timezone":"Eastern Time (US & Canada)","country":"USA","isReserveEnabled":false,"name":"Ann Arbor","uuid":"4c5858f5-a8e0-46aa-a653-cd1c8174ead0","id":"ann-arbor"},{"areas":[],"isNowMerchantEnabled":false,"lat":35.6009,"timezoneIdentifier":"America/New_York","defaultLocale":"en","isNowCustomerEnabled":false,"isPresenceEnabled":false,"lng":-82.554,"timezoneOffsetInSeconds":-18000,"timezone":"Eastern Time (US & Canada)","country":"USA","isReserveEnabled":false,"name":"Asheville","uuid":"15b6f5ed-40f1-4018-9114-60144b29a468","id":"asheville"},{"areas":[],"isNowMerchantEnabled":false,"lat":33.9558,"timezoneIdentifier":"America/New_York","defaultLocale":"en","isNowCustomerEnabled":false,"isPresenceEnabled":false,"lng":-83.3824,"timezoneOffsetInSeconds":-18000,"timezone":"Eastern Time (US & Canada)","country":"USA","isReserveEnabled":false,"name":"Athens, GA","uuid":"bea5b978-86b3-4bde-afef-0a29bb661e83","id":"athens-ga"},{"areas":[],"isNowMerchantEnabled":true,"lat":33.7545,"timezoneIdentifier":"America/New_York","defaultLocale":"en","isNowCustomerEnabled":true,"isPresenceEnabled":false,"lng":-84.3897,"timezoneOffsetInSeconds":-18000,"timezone":"Eastern Time (US & Canada)","country":"USA","isReserveEnabled":true,"name":"Atlanta","uuid":"65e6d9ca-90f8-41ee-b917-e674acd705dd","id":"atlanta"},{"areas":[],"isNowMerchantEnabled":false,"lat":33.4742,"timezoneIdentifier":"America/New_York","defaultLocale":"en","isNowCustomerEnabled":false,"isPresenceEnabled":false,"lng":-82.0097,"timezoneOffsetInSeconds":-18000,"timezone":"Eastern Time (US & Canada)","country":"USA","isReserveEnabled":false,"name":"Augusta","uuid":"f47c80cf-4221-4c90-a04b-e2bc0bd5c7aa","id":"augusta"},{"areas":[],"isNowMerchantEnabled":true,"lat":30.2687,"timezoneIdentifier":"America/Chicago","defaultLocale":"en","isNowCustomerEnabled":true,"isPresenceEnabled":false,"lng":-97.7452,"timezoneOffsetInSeconds":-21600,"timezone":"Central Time (US & Canada)","country":"USA","isReserveEnabled":false,"name":"Austin","uuid":"bb7ac62f-723d-4956-82b5-370349f9a1f5","id":"austin"},{"areas":[],"isNowMerchantEnabled":false,"lat":35.3733,"timezoneIdentifier":"America/Los_Angeles","defaultLocale":"en","isNowCustomerEnabled":false,"isPresenceEnabled":false,"lng":-119.019,"timezoneOffsetInSeconds":-28800,"timezone":"Pacific Time (US & Canada)","country":"USA","isReserveEnabled":false,"name":"Bakersfield","uuid":"a3acdc13-22cc-479d-aa66-b513672e1a89","id":"bakersfield"},{"areas":[],"isNowMerchantEnabled":false,"lat":39.2943,"timezoneIdentifier":"America/New_York","defaultLocale":"en","isNowCustomerEnabled":false,"isPresenceEnabled":false,"lng":-76.6143,"timezoneOffsetInSeconds":-18000,"timezone":"Eastern Time (US & Canada)","country":"USA","isReserveEnabled":false,"name":"Baltimore","uuid":"162bbf91-fe10-4f82-bb30-f41312d513f1","id":"baltimore"},{"areas":[],"isNowMerchantEnabled":false,"lat":44.3812,"timezoneIdentifier":"America/New_York","defaultLocale":"en","isNowCustomerEnabled":false,"isPresenceEnabled":false,"lng":-79.687,"timezoneOffsetInSeconds":-18000,"timezone":"Eastern Time (US & Canada)","country":"Canada","isReserveEnabled":false,"name":"Barrie","uuid":"75604858-3d4a-4895-b244-3aaeb994b529","id":"barrie"},{"areas":[],"isNowMerchantEnabled":false,"lat":30.4507,"timezoneIdentifier":"America/Chicago","defaultLocale":"en","isNowCustomerEnabled":false,"isPresenceEnabled":false,"lng":-91.1545,"timezoneOffsetInSeconds":-21600,"timezone":"Central Time (US & Canada)","country":"USA","isReserveEnabled":false,"name":"Baton Rouge","uuid":"1bfd0d39-930c-4c35-b865-bb71a86c706a","id":"baton-rouge"},{"areas":[],"isNowMerchantEnabled":false,"lat":30.0802,"timezoneIdentifier":"America/Chicago","defaultLocale":"en","isNowCustomerEnabled":false,"isPresenceEnabled":false,"lng":-94.1266,"timezoneOffsetInSeconds":-21600,"timezone":"Central Time (US & Canada)","country":"USA","isReserveEnabled":false,"name":"Beaumont, TX","uuid":"b1666719-a9d8-4d07-94e7-ff8a499f65e7","id":"beaumont"},{"areas":[],"isNowMerchantEnabled":false,"lat":45.7833,"timezoneIdentifier":"America/Denver","defaultLocale":"en","isNowCustomerEnabled":false,"isPresenceEnabled":false,"lng":-108.501,"timezoneOffsetInSeconds":-25200,"timezone":"Mountain Time (US & Canada)","country":"USA","isReserveEnabled":false,"name":"Billings / Bozeman","uuid":"bf180656-75fc-42d6-9271-654b0fc38eb5","id":"billings"},{"areas":[],"isNowMerchantEnabled":false,"lat":33.5207,"timezoneIdentifier":"America/Chicago","defaultLocale":"en","isNowCustomerEnabled":false,"isPresenceEnabled":false,"lng":-86.8025,"timezoneOffsetInSeconds":-21600,"timezone":"Central Time (US & Canada)","country":"USA","isReserveEnabled":false,"name":"Birmingham","uuid":"a043011d-0c61-46cb-8738-85e648fed18d","id":"birmingham"},{"areas":[],"isNowMerchantEnabled":false,"lat":39.1653,"timezoneIdentifier":"America/New_York","defaultLocale":"en","isNowCustomerEnabled":false,"isPresenceEnabled":false,"lng":-86.5264,"timezoneOffsetInSeconds":-18000,"timezone":"Eastern Time (US & Canada)","country":"USA","isReserveEnabled":false,"name":"Bloomington, IN","uuid":"76a3c4af-72f8-4f8a-a815-bb9e6233f903","id":"bloomington-in"},{"areas":[],"isNowMerchantEnabled":false,"lat":43.6137,"timezoneIdentifier":"America/Denver","defaultLocale":"en","isNowCustomerEnabled":false,"isPresenceEnabled":false,"lng":-116.238,"timezoneOffsetInSeconds":-25200,"timezone":"Mountain Time (US & Canada)","country":"USA","isReserveEnabled":false,"name":"Boise","uuid":"2aae176f-148e-4302-bf70-cd845997ccc8","id":"boise"},{"areas":[],"isNowMerchantEnabled":true,"lat":42.3589,"timezoneIdentifier":"America/New_York","defaultLocale":"en","isNowCustomerEnabled":true,"isPresenceEnabled":false,"lng":-71.0578,"timezoneOffsetInSeconds":-18000,"timezone":"Eastern Time (US & Canada)","country":"USA","isReserveEnabled":true,"name":"Boston","uuid":"88c5b58d-9c58-40ef-a9c0-67a68c989a68","id":"boston"},{"areas":[],"isNowMerchantEnabled":false,"lat":42.8864,"timezoneIdentifier":"America/New_York","defaultLocale":"en","isNowCustomerEnabled":false,"isPresenceEnabled":false,"lng":-78.8784,"timezoneOffsetInSeconds":-18000,"timezone":"Eastern Time (US & Canada)","country":"USA","isReserveEnabled":false,"name":"Buffalo","uuid":"8e1c2e5b-0afa-499a-8d4f-1140015c13b5","id":"buffalo"},{"areas":[],"isNowMerchantEnabled":false,"lat":51.045,"timezoneIdentifier":"America/Denver","defaultLocale":"en","isNowCustomerEnabled":false,"isPresenceEnabled":false,"lng":-114.057,"timezoneOffsetInSeconds":-25200,"timezone":"Mountain Time (US & Canada)","country":"Canada","isReserveEnabled":false,"name":"Calgary","uuid":"8f736130-3492-4404-8e39-e77957a42043","id":"calgary"},{"areas":[],"isNowMerchantEnabled":false,"lat":46.15,"timezoneIdentifier":"America/Halifax","defaultLocale":"en","isNowCustomerEnabled":false,"isPresenceEnabled":false,"lng":-60.1667,"timezoneOffsetInSeconds":-14400,"timezone":"Atlantic Time (Canada)","country":"Canada","isReserveEnabled":false,"name":"Cape Breton","uuid":"e2b72099-e26d-4a57-808b-7f7d8efbcb9e","id":"cape-breton"},{"areas":[],"isNowMerchantEnabled":false,"lat":41.9625,"timezoneIdentifier":"America/Chicago","defaultLocale":"en","isNowCustomerEnabled":false,"isPresenceEnabled":false,"lng":-91.6918,"timezoneOffsetInSeconds":-21600,"timezone":"Central Time (US & Canada)","country":"USA","isReserveEnabled":false,"name":"Cedar Rapids / Iowa City","uuid":"5c4cd1c2-3a46-4d91-aea1-75ba3126a4db","id":"cedar-rapids-iowa-city"},{"areas":[],"isNowMerchantEnabled":false,"lat":40.2171,"timezoneIdentifier":"America/New_York","defaultLocale":"en","isNowCustomerEnabled":false,"isPresenceEnabled":false,"lng":-74.7429,"timezoneOffsetInSeconds":-18000,"timezone":"Eastern Time (US & Canada)","country":"USA","isReserveEnabled":false,"name":"Central Jersey","uuid":"b45b3eb9-3036-4faf-957e-9d0426084b33","id":"central-jersey"},{"areas":[],"isNowMerchantEnabled":false,"lat":32.7766,"timezoneIdentifier":"America/New_York","defaultLocale":"en","isNowCustomerEnabled":false,"isPresenceEnabled":false,"lng":-79.9309,"timezoneOffsetInSeconds":-18000,"timezone":"Eastern Time (US & Canada)","country":"USA","isReserveEnabled":false,"name":"Charleston","uuid":"cbbf5979-07b0-4ccb-81df-7230b9441fcf","id":"charleston"},{"areas":[],"isNowMerchantEnabled":false,"lat":38.3507,"timezoneIdentifier":"America/New_York","defaultLocale":"en","isNowCustomerEnabled":false,"isPresenceEnabled":false,"lng":-81.6387,"timezoneOffsetInSeconds":-18000,"timezone":"Eastern Time (US & Canada)","country":"USA","isReserveEnabled":false,"name":"Charleston, WV","uuid":"6dae19ac-b9fa-4800-9036-431a39afb594","id":"charleston-wv"},{"areas":[],"isNowMerchantEnabled":false,"lat":35.2314,"timezoneIdentifier":"America/New_York","defaultLocale":"en","isNowCustomerEnabled":false,"isPresenceEnabled":false,"lng":-80.8458,"timezoneOffsetInSeconds":-18000,"timezone":"Eastern Time (US & Canada)","country":"USA","isReserveEnabled":false,"name":"Charlotte","uuid":"dc8bc93a-d371-4899-bd11-b0be78e25380","id":"charlotte"},{"areas":[],"isNowMerchantEnabled":false,"lat":35.0456,"timezoneIdentifier":"America/New_York","defaultLocale":"en","isNowCustomerEnabled":false,"isPresenceEnabled":false,"lng":-85.3097,"timezoneOffsetInSeconds":-18000,"timezone":"Eastern Time (US & Canada)","country":"USA","isReserveEnabled":false,"name":"Chattanooga","uuid":"d8fcf1e3-2881-4dbb-ab60-c07f43b2e351","id":"chattanooga"},{"areas":[],"isNowMerchantEnabled":true,"lat":41.8795,"timezoneIdentifier":"America/Chicago","defaultLocale":"en","isNowCustomerEnabled":true,"isPresenceEnabled":true,"lng":-87.6243,"timezoneOffsetInSeconds":-21600,"timezone":"Central Time (US & Canada)","country":"USA","isReserveEnabled":true,"name":"Chicago","uuid":"0af33a71-ba16-42df-87ed-65f4a3a4b5ab","id":"chicago"},{"areas":[],"isNowMerchantEnabled":false,"lat":39.148,"timezoneIdentifier":"America/New_York","defaultLocale":"en","isNowCustomerEnabled":false,"isPresenceEnabled":false,"lng":-84.477,"timezoneOffsetInSeconds":-18000,"timezone":"Eastern Time (US & Canada)","country":"USA","isReserveEnabled":false,"name":"Cincinnati","uuid":"88d843c7-8c3a-4278-9963-d8fa7108356c","id":"cincinnati"},{"areas":[],"isNowMerchantEnabled":false,"lat":41.4995,"timezoneIdentifier":"America/New_York","defaultLocale":"en","isNowCustomerEnabled":false,"isPresenceEnabled":false,"lng":-81.6954,"timezoneOffsetInSeconds":-18000,"timezone":"Eastern Time (US & Canada)","country":"USA","isReserveEnabled":false,"name":"Cleveland","uuid":"d4403037-0f06-41d4-a263-5036d5868d35","id":"cleveland"},{"areas":[],"isNowMerchantEnabled":false,"lat":38.8339,"timezoneIdentifier":"America/Denver","defaultLocale":"en","isNowCustomerEnabled":false,"isPresenceEnabled":false,"lng":-104.821,"timezoneOffsetInSeconds":-25200,"timezone":"Mountain Time (US & Canada)","country":"USA","isReserveEnabled":false,"name":"Colorado Springs","uuid":"7818705a-4a22-4dee-b050-4fadf3d3307d","id":"colorado-springs"},{"areas":[],"isNowMerchantEnabled":false,"lat":34.0007,"timezoneIdentifier":"America/New_York","defaultLocale":"en","isNowCustomerEnabled":false,"isPresenceEnabled":false,"lng":-81.0348,"timezoneOffsetInSeconds":-18000,"timezone":"Eastern Time (US & Canada)","country":"USA","isReserveEnabled":false,"name":"Columbia","uuid":"c34040c4-cdb9-41bf-ac18-375dc25a6ff3","id":"columbia"},{"areas":[],"isNowMerchantEnabled":false,"lat":38.9481,"timezoneIdentifier":"America/Chicago","defaultLocale":"en","isNowCustomerEnabled":false,"isPresenceEnabled":false,"lng":-92.3268,"timezoneOffsetInSeconds":-21600,"timezone":"Central Time (US & Canada)","country":"USA","isReserveEnabled":false,"name":"Columbia, MO","uuid":"331d1b26-2198-4f65-aa83-9df50dfcee5a","id":"columbia-mo"},{"areas":[],"isNowMerchantEnabled":false,"lat":39.9612,"timezoneIdentifier":"America/New_York","defaultLocale":"en","isNowCustomerEnabled":false,"isPresenceEnabled":false,"lng":-82.9988,"timezoneOffsetInSeconds":-18000,"timezone":"Eastern Time (US & Canada)","country":"USA","isReserveEnabled":false,"name":"Columbus","uuid":"1c21efa1-3211-44f3-afde-4f17a6c0dbfd","id":"columbus"},{"areas":[],"isNowMerchantEnabled":false,"lat":32.461,"timezoneIdentifier":"America/New_York","defaultLocale":"en","isNowCustomerEnabled":false,"isPresenceEnabled":false,"lng":-84.9877,"timezoneOffsetInSeconds":-18000,"timezone":"Eastern Time (US & Canada)","country":"USA","isReserveEnabled":false,"name":"Columbus GA","uuid":"fb776e57-a8b0-4f88-9f21-b3e639d7352b","id":"columbus-ga"},{"areas":[],"isNowMerchantEnabled":false,"lat":27.8006,"timezoneIdentifier":"America/Chicago","defaultLocale":"en","isNowCustomerEnabled":false,"isPresenceEnabled":false,"lng":-97.3964,"timezoneOffsetInSeconds":-21600,"timezone":"Central Time (US & Canada)","country":"USA","isReserveEnabled":false,"name":"Corpus Christi","uuid":"733e404d-d0c6-4765-a734-3180e60e00d8","id":"corpus-christi"},{"areas":[],"isNowMerchantEnabled":true,"lat":32.7811,"timezoneIdentifier":"America/Chicago","defaultLocale":"en","isNowCustomerEnabled":true,"isPresenceEnabled":false,"lng":-96.7971,"timezoneOffsetInSeconds":-21600,"timezone":"Central Time (US & Canada)","country":"USA","isReserveEnabled":false,"name":"Dallas","uuid":"6999d6b2-78aa-4b23-aa4c-122b1a328b6f","id":"dallas"},{"areas":[],"isNowMerchantEnabled":false,"lat":39.7589,"timezoneIdentifier":"America/New_York","defaultLocale":"en","isNowCustomerEnabled":false,"isPresenceEnabled":false,"lng":-84.1916,"timezoneOffsetInSeconds":-18000,"timezone":"Eastern Time (US & Canada)","country":"USA","isReserveEnabled":false,"name":"Dayton","uuid":"00200b86-6c98-4910-bb5f-03b500a177b3","id":"dayton"},{"areas":[],"isNowMerchantEnabled":false,"lat":29.1988,"timezoneIdentifier":"America/New_York","defaultLocale":"en","isNowCustomerEnabled":false,"isPresenceEnabled":false,"lng":-81.089,"timezoneOffsetInSeconds":-18000,"timezone":"Eastern Time (US & Canada)","country":"USA","isReserveEnabled":false,"name":"Daytona Beach","uuid":"a58e4fee-2969-4e7b-8790-dbc9f780a8c8","id":"daytona-beach"},{"areas":[],"isNowMerchantEnabled":true,"lat":39.7551,"timezoneIdentifier":"America/Denver","defaultLocale":"en","isNowCustomerEnabled":true,"isPresenceEnabled":false,"lng":-104.988,"timezoneOffsetInSeconds":-25200,"timezone":"Mountain Time (US & Canada)","country":"USA","isReserveEnabled":true,"name":"Denver","uuid":"806b17ff-8aa2-4bcc-9e33-0122b3627535","id":"denver"},{"areas":[],"isNowMerchantEnabled":false,"lat":41.6005,"timezoneIdentifier":"America/Chicago","defaultLocale":"en","isNowCustomerEnabled":false,"isPresenceEnabled":false,"lng":-93.6091,"timezoneOffsetInSeconds":-21600,"timezone":"Central Time (US & Canada)","country":"USA","isReserveEnabled":false,"name":"Des Moines","uuid":"4bfed0d2-13e3-4de1-99f5-244e9bb5271b","id":"des-moines"},{"areas":[],"isNowMerchantEnabled":true,"lat":42.3314,"timezoneIdentifier":"America/New_York","defaultLocale":"en","isNowCustomerEnabled":true,"isPresenceEnabled":false,"lng":-83.0458,"timezoneOffsetInSeconds":-18000,"timezone":"Eastern Time (US & Canada)","country":"USA","isReserveEnabled":false,"name":"Detroit","uuid":"f49d235c-f2b4-46b4-84fc-497066f3e2d3","id":"detroit"},{"areas":[],"isNowMerchantEnabled":false,"lat":53.5436,"timezoneIdentifier":"America/Denver","defaultLocale":"en","isNowCustomerEnabled":false,"isPresenceEnabled":false,"lng":-113.49,"timezoneOffsetInSeconds":-25200,"timezone":"Mountain Time (US & Canada)","country":"Canada","isReserveEnabled":false,"name":"Edmonton","uuid":"5e3ec9be-55c0-4d80-a073-1c29543da4cb","id":"edmonton"},{"areas":[],"isNowMerchantEnabled":false,"lat":31.7587,"timezoneIdentifier":"America/Denver","defaultLocale":"en","isNowCustomerEnabled":false,"isPresenceEnabled":false,"lng":-106.487,"timezoneOffsetInSeconds":-25200,"timezone":"Mountain Time (US & Canada)","country":"USA","isReserveEnabled":false,"name":"El Paso","uuid":"14a8bf4d-2312-4835-8c14-407923c44dbc","id":"el-paso"},{"areas":[],"isNowMerchantEnabled":false,"lat":42.1292,"timezoneIdentifier":"America/New_York","defaultLocale":"en","isNowCustomerEnabled":false,"isPresenceEnabled":false,"lng":-80.0851,"timezoneOffsetInSeconds":-18000,"timezone":"Eastern Time (US & Canada)","country":"USA","isReserveEnabled":false,"name":"Erie","uuid":"ee11dec0-dd6f-4d6b-a0aa-74df5e475742","id":"erie"},{"areas":[],"isNowMerchantEnabled":false,"lat":44.0521,"timezoneIdentifier":"America/Los_Angeles","defaultLocale":"en","isNowCustomerEnabled":false,"isPresenceEnabled":false,"lng":-123.087,"timezoneOffsetInSeconds":-28800,"timezone":"Pacific Time (US & Canada)","country":"USA","isReserveEnabled":false,"name":"Eugene","uuid":"1c40d0dc-59f9-4669-997a-4694f3ccde48","id":"eugene"},{"areas":[],"isNowMerchantEnabled":false,"lat":37.9748,"timezoneIdentifier":"America/Chicago","defaultLocale":"en","isNowCustomerEnabled":false,"isPresenceEnabled":false,"lng":-87.5558,"timezoneOffsetInSeconds":-21600,"timezone":"Central Time (US & Canada)","country":"USA","isReserveEnabled":false,"name":"Evansville","uuid":"ed08cffb-c3da-451d-b227-606aa1e5f30e","id":"evansville"},{"areas":[],"isNowMerchantEnabled":false,"lat":41.3802,"timezoneIdentifier":"America/New_York","defaultLocale":"en","isNowCustomerEnabled":false,"isPresenceEnabled":false,"lng":-73.4553,"timezoneOffsetInSeconds":-18000,"timezone":"Eastern Time (US & Canada)","country":"USA","isReserveEnabled":true,"name":"Fairfield County","uuid":"c0f83784-5044-40a2-9d4f-413123da703a","id":"fairfield-county"},{"areas":[],"isNowMerchantEnabled":true,"lat":26.1223,"timezoneIdentifier":"America/New_York","defaultLocale":"en","isNowCustomerEnabled":true,"isPresenceEnabled":false,"lng":-80.1434,"timezoneOffsetInSeconds":-18000,"timezone":"Eastern Time (US & Canada)","country":"USA","isReserveEnabled":true,"name":"Fort Lauderdale","uuid":"a6ac2b98-85f6-4936-a3b1-d51f856c156f","id":"fort-lauderdale"},{"areas":[],"isNowMerchantEnabled":false,"lat":26.6406,"timezoneIdentifier":"America/New_York","defaultLocale":"en","isNowCustomerEnabled":false,"isPresenceEnabled":false,"lng":-81.8723,"timezoneOffsetInSeconds":-18000,"timezone":"Eastern Time (US & Canada)","country":"USA","isReserveEnabled":false,"name":"Fort Myers / Cape Coral","uuid":"58f6123d-0d08-47b3-b8f9-755eea23141b","id":"fort-myers-cape-coral"},{"areas":[],"isNowMerchantEnabled":false,"lat":41.1306,"timezoneIdentifier":"America/New_York","defaultLocale":"en","isNowCustomerEnabled":false,"isPresenceEnabled":false,"lng":-85.1289,"timezoneOffsetInSeconds":-18000,"timezone":"Eastern Time (US & Canada)","country":"USA","isReserveEnabled":false,"name":"Fort Wayne","uuid":"5263cd3d-3c51-4d76-8567-6800faba2985","id":"fort-wayne"},{"areas":[],"isNowMerchantEnabled":true,"lat":32.7254,"timezoneIdentifier":"America/Chicago","defaultLocale":"en","isNowCustomerEnabled":true,"isPresenceEnabled":false,"lng":-97.3208,"timezoneOffsetInSeconds":-21600,"timezone":"Central Time (US & Canada)","country":"USA","isReserveEnabled":false,"name":"Fort Worth","uuid":"6380f8f9-980b-46fa-85ff-6e84a4186241","id":"fort-worth"},{"areas":[],"isNowMerchantEnabled":false,"lat":44.2619,"timezoneIdentifier":"America/Chicago","defaultLocale":"en","isNowCustomerEnabled":false,"isPresenceEnabled":false,"lng":-88.4154,"timezoneOffsetInSeconds":-21600,"timezone":"Central Time (US & Canada)","country":"USA","isReserveEnabled":false,"name":"Fox Cities","uuid":"ba6cfbc5-c760-4136-93d4-2f2ff1e1d6d4","id":"appleton"},{"areas":[],"isNowMerchantEnabled":false,"lat":36.7477,"timezoneIdentifier":"America/Los_Angeles","defaultLocale":"en","isNowCustomerEnabled":false,"isPresenceEnabled":false,"lng":-119.772,"timezoneOffsetInSeconds":-28800,"timezone":"Pacific Time (US & Canada)","country":"USA","isReserveEnabled":false,"name":"Fresno","uuid":"a3d435af-488b-4c8d-9da9-1b147d2c9229","id":"fresno"},{"areas":[],"isNowMerchantEnabled":false,"lat":29.6516,"timezoneIdentifier":"America/New_York","defaultLocale":"en","isNowCustomerEnabled":false,"isPresenceEnabled":false,"lng":-82.3248,"timezoneOffsetInSeconds":-18000,"timezone":"Eastern Time (US & Canada)","country":"USA","isReserveEnabled":false,"name":"Gainesville","uuid":"08b3b90b-adf1-4448-859c-264db4d37801","id":"gainesville"},{"areas":[],"isNowMerchantEnabled":false,"lat":42.9634,"timezoneIdentifier":"America/New_York","defaultLocale":"en","isNowCustomerEnabled":false,"isPresenceEnabled":false,"lng":-85.6681,"timezoneOffsetInSeconds":-18000,"timezone":"Eastern Time (US & Canada)","country":"USA","isReserveEnabled":false,"name":"Grand Rapids","uuid":"e48fec6f-af2c-4cbd-a857-5879876873b0","id":"grand-rapids"},{"areas":[],"isNowMerchantEnabled":false,"lat":44.5192,"timezoneIdentifier":"America/Chicago","defaultLocale":"en","isNowCustomerEnabled":false,"isPresenceEnabled":false,"lng":-88.0198,"timezoneOffsetInSeconds":-21600,"timezone":"Central Time (US & Canada)","country":"USA","isReserveEnabled":false,"name":"Green Bay","uuid":"1fc9b556-16da-446c-89cc-7b3ed2356bbc","id":"green-bay"},{"areas":[],"isNowMerchantEnabled":false,"lat":34.8526,"timezoneIdentifier":"America/New_York","defaultLocale":"en","isNowCustomerEnabled":false,"isPresenceEnabled":false,"lng":-82.394,"timezoneOffsetInSeconds":-18000,"timezone":"Eastern Time (US & Canada)","country":"USA","isReserveEnabled":false,"name":"Greenville","uuid":"f8ff19a9-179a-451c-a630-eed69b541133","id":"greenville"},{"areas":[],"isNowMerchantEnabled":false,"lat":44.6489,"timezoneIdentifier":"America/Halifax","defaultLocale":"en","isNowCustomerEnabled":false,"isPresenceEnabled":false,"lng":-63.5753,"timezoneOffsetInSeconds":-14400,"timezone":"Atlantic Time (Canada)","country":"Canada","isReserveEnabled":false,"name":"Halifax","uuid":"14812774-7a6e-4991-91a1-fb4849c9ce70","id":"halifax"},{"areas":[],"isNowMerchantEnabled":false,"lat":36.8529,"timezoneIdentifier":"America/New_York","defaultLocale":"en","isNowCustomerEnabled":false,"isPresenceEnabled":false,"lng":-75.978,"timezoneOffsetInSeconds":-18000,"timezone":"Eastern Time (US & Canada)","country":"USA","isReserveEnabled":false,"name":"Hampton Roads","uuid":"15c22c24-ff3f-489e-ba18-cb0e9253986f","id":"hampton-roads"},{"areas":[],"isNowMerchantEnabled":false,"lat":40.2737,"timezoneIdentifier":"America/New_York","defaultLocale":"en","isNowCustomerEnabled":false,"isPresenceEnabled":false,"lng":-76.8844,"timezoneOffsetInSeconds":-18000,"timezone":"Eastern Time (US & Canada)","country":"USA","isReserveEnabled":false,"name":"Harrisburg / Lancaster","uuid":"5c6a42e6-a8e1-4b4b-9309-0b896b32c951","id":"harrisburg"},{"areas":[],"isNowMerchantEnabled":false,"lat":41.7637,"timezoneIdentifier":"America/New_York","defaultLocale":"en","isNowCustomerEnabled":false,"isPresenceEnabled":false,"lng":-72.6851,"timezoneOffsetInSeconds":-18000,"timezone":"Eastern Time (US & Canada)","country":"USA","isReserveEnabled":false,"name":"Hartford","uuid":"1bd726fc-4479-48e7-9834-136cc5934a2b","id":"hartford"},{"areas":[],"isNowMerchantEnabled":false,"lat":21.3069,"timezoneIdentifier":"Pacific/Honolulu","defaultLocale":"en","isNowCustomerEnabled":false,"isPresenceEnabled":false,"lng":-157.858,"timezoneOffsetInSeconds":-36000,"timezone":"Hawaii","country":"USA","isReserveEnabled":false,"name":"Honolulu","uuid":"23f4c95f-82c0-440a-9f4e-8d00be3f4e12","id":"honolulu"},{"areas":[],"isNowMerchantEnabled":true,"lat":29.76,"timezoneIdentifier":"America/Chicago","defaultLocale":"en","isNowCustomerEnabled":true,"isPresenceEnabled":false,"lng":-95.3625,"timezoneOffsetInSeconds":-21600,"timezone":"Central Time (US & Canada)","country":"USA","isReserveEnabled":false,"name":"Houston","uuid":"80bcfccd-d522-4ee2-8ca6-792645796add","id":"houston"},{"areas":[],"isNowMerchantEnabled":false,"lat":34.7304,"timezoneIdentifier":"America/Chicago","defaultLocale":"en","isNowCustomerEnabled":false,"isPresenceEnabled":false,"lng":-86.5861,"timezoneOffsetInSeconds":-21600,"timezone":"Central Time (US & Canada)","country":"USA","isReserveEnabled":false,"name":"Huntsville","uuid":"3125cbd5-d88f-4515-92e1-809197131d99","id":"huntsville"},{"areas":[],"isNowMerchantEnabled":false,"lat":39.767,"timezoneIdentifier":"America/New_York","defaultLocale":"en","isNowCustomerEnabled":false,"isPresenceEnabled":false,"lng":-86.1563,"timezoneOffsetInSeconds":-18000,"timezone":"Eastern Time (US & Canada)","country":"USA","isReserveEnabled":false,"name":"Indianapolis","uuid":"0b90494d-e8b3-4164-9dd8-d2b0b32cfbe0","id":"indianapolis"},{"areas":[],"isNowMerchantEnabled":false,"lat":34.1083,"timezoneIdentifier":"America/Los_Angeles","defaultLocale":"en","isNowCustomerEnabled":false,"isPresenceEnabled":false,"lng":-117.29,"timezoneOffsetInSeconds":-28800,"timezone":"Pacific Time (US & Canada)","country":"USA","isReserveEnabled":true,"name":"Inland Empire","uuid":"26db2f4f-ceac-4822-aebc-eb60217474ae","id":"inland-empire"},{"areas":[],"isNowMerchantEnabled":false,"lat":32.2988,"timezoneIdentifier":"America/Chicago","defaultLocale":"en","isNowCustomerEnabled":false,"isPresenceEnabled":false,"lng":-90.1848,"timezoneOffsetInSeconds":-21600,"timezone":"Central Time (US & Canada)","country":"USA","isReserveEnabled":false,"name":"Jackson","uuid":"5bec18a6-bcf0-4fbe-96b2-be3348bc2685","id":"jackson"},{"areas":[],"isNowMerchantEnabled":false,"lat":30.3322,"timezoneIdentifier":"America/New_York","defaultLocale":"en","isNowCustomerEnabled":false,"isPresenceEnabled":false,"lng":-81.6556,"timezoneOffsetInSeconds":-18000,"timezone":"Eastern Time (US & Canada)","country":"USA","isReserveEnabled":false,"name":"Jacksonville","uuid":"5fd6cef7-65c4-472f-a603-aa24624cba76","id":"jacksonville"},{"areas":[],"isNowMerchantEnabled":false,"lat":42.2917,"timezoneIdentifier":"America/New_York","defaultLocale":"en","isNowCustomerEnabled":false,"isPresenceEnabled":false,"lng":-85.5872,"timezoneOffsetInSeconds":-18000,"timezone":"Eastern Time (US & Canada)","country":"USA","isReserveEnabled":false,"name":"Kalamazoo","uuid":"81bc223b-2e53-4348-96be-7bd35e8928b2","id":"kalamazoo"},{"areas":[],"isNowMerchantEnabled":true,"lat":39.0997,"timezoneIdentifier":"America/Chicago","defaultLocale":"en","isNowCustomerEnabled":true,"isPresenceEnabled":false,"lng":-94.5786,"timezoneOffsetInSeconds":-21600,"timezone":"Central Time (US & Canada)","country":"USA","isReserveEnabled":false,"name":"Kansas City","uuid":"d91aa094-3c76-4de9-a9b7-c549f75bbd9b","id":"kansas-city"},{"areas":[],"isNowMerchantEnabled":false,"lat":49.8799,"timezoneIdentifier":"America/Los_Angeles","defaultLocale":"en","isNowCustomerEnabled":false,"isPresenceEnabled":false,"lng":-119.45,"timezoneOffsetInSeconds":-28800,"timezone":"Pacific Time (US & Canada)","country":"Canada","isReserveEnabled":false,"name":"Kelowna","uuid":"7e0f75d8-b559-4b24-921c-e25ebd6b3fab","id":"kelowna"},{"areas":[],"isNowMerchantEnabled":false,"lat":44.2636,"timezoneIdentifier":"America/New_York","defaultLocale":"en","isNowCustomerEnabled":false,"isPresenceEnabled":false,"lng":-76.5034,"timezoneOffsetInSeconds":-18000,"timezone":"Eastern Time (US & Canada)","country":"Canada","isReserveEnabled":false,"name":"Kingston / Belleville","uuid":"3faf1eb3-d820-4331-a2d2-59318d9b9bb8","id":"kingston"},{"areas":[],"isNowMerchantEnabled":false,"lat":43.4343,"timezoneIdentifier":"America/New_York","defaultLocale":"en","isNowCustomerEnabled":false,"isPresenceEnabled":false,"lng":-80.4777,"timezoneOffsetInSeconds":-18000,"timezone":"Eastern Time (US & Canada)","country":"Canada","isReserveEnabled":false,"name":"Kitchener - Waterloo","uuid":"59f60025-02c7-484f-b9ca-c6dea54c19ee","id":"kitchener-waterloo"},{"areas":[],"isNowMerchantEnabled":false,"lat":35.9606,"timezoneIdentifier":"America/New_York","defaultLocale":"en","isNowCustomerEnabled":false,"isPresenceEnabled":false,"lng":-83.9207,"timezoneOffsetInSeconds":-18000,"timezone":"Eastern Time (US & Canada)","country":"USA","isReserveEnabled":false,"name":"Knoxville","uuid":"4af3c895-c8a7-463c-a71c-ec5facdf7284","id":"knoxville"},{"areas":[],"isNowMerchantEnabled":false,"lat":28.0395,"timezoneIdentifier":"America/New_York","defaultLocale":"en","isNowCustomerEnabled":false,"isPresenceEnabled":false,"lng":-81.9498,"timezoneOffsetInSeconds":-18000,"timezone":"Eastern Time (US & Canada)","country":"USA","isReserveEnabled":false,"name":"Lakeland","uuid":"8c66c4ea-f2b0-41ad-9e22-dcca4eafecd5","id":"lakeland"},{"areas":[],"isNowMerchantEnabled":false,"lat":42.7325,"timezoneIdentifier":"America/New_York","defaultLocale":"en","isNowCustomerEnabled":false,"isPresenceEnabled":false,"lng":-84.5555,"timezoneOffsetInSeconds":-18000,"timezone":"Eastern Time (US & Canada)","country":"USA","isReserveEnabled":false,"name":"Lansing","uuid":"5f5c6c48-b658-4632-bb7c-308ae9b308e5","id":"lansing"},{"areas":[],"isNowMerchantEnabled":true,"lat":36.1146,"timezoneIdentifier":"America/Los_Angeles","defaultLocale":"en","isNowCustomerEnabled":true,"isPresenceEnabled":false,"lng":-115.173,"timezoneOffsetInSeconds":-28800,"timezone":"Pacific Time (US & Canada)","country":"USA","isReserveEnabled":false,"name":"Las Vegas","uuid":"11a23f6b-3a48-4c5c-8660-3ce4e2a9f29c","id":"las-vegas"},{"areas":[],"isNowMerchantEnabled":false,"lat":38.0317,"timezoneIdentifier":"America/New_York","defaultLocale":"en","isNowCustomerEnabled":false,"isPresenceEnabled":false,"lng":-84.4951,"timezoneOffsetInSeconds":-18000,"timezone":"Eastern Time (US & Canada)","country":"USA","isReserveEnabled":false,"name":"Lexington","uuid":"1ad4f009-6611-4579-b123-603f41ca6ac1","id":"lexington"},{"areas":[],"isNowMerchantEnabled":false,"lat":40.8069,"timezoneIdentifier":"America/Chicago","defaultLocale":"en","isNowCustomerEnabled":false,"isPresenceEnabled":false,"lng":-96.6817,"timezoneOffsetInSeconds":-21600,"timezone":"Central Time (US & Canada)","country":"USA","isReserveEnabled":false,"name":"Lincoln","uuid":"7f72f115-6da0-425c-a3c9-3633306352fd","id":"lincoln"},{"areas":[],"isNowMerchantEnabled":false,"lat":34.7465,"timezoneIdentifier":"America/Chicago","defaultLocale":"en","isNowCustomerEnabled":false,"isPresenceEnabled":false,"lng":-92.2896,"timezoneOffsetInSeconds":-21600,"timezone":"Central Time (US & Canada)","country":"USA","isReserveEnabled":false,"name":"Little Rock","uuid":"01eee160-9233-45e6-b37e-0a6d76eea922","id":"little-rock"},{"areas":[],"isNowMerchantEnabled":false,"lat":42.9794,"timezoneIdentifier":"America/New_York","defaultLocale":"en","isNowCustomerEnabled":false,"isPresenceEnabled":false,"lng":-81.2461,"timezoneOffsetInSeconds":-18000,"timezone":"Eastern Time (US & Canada)","country":"Canada","isReserveEnabled":false,"name":"London, ON","uuid":"7c272005-3bc1-4139-9c2a-2635874fbc96","id":"london"},{"areas":[],"isNowMerchantEnabled":true,"lat":40.8168,"timezoneIdentifier":"America/New_York","defaultLocale":"en","isNowCustomerEnabled":true,"isPresenceEnabled":false,"lng":-73.0661,"timezoneOffsetInSeconds":-18000,"timezone":"Eastern Time (US & Canada)","country":"USA","isReserveEnabled":true,"name":"Long Island","uuid":"d740ff3a-1939-4442-a0b2-9a0b7135da20","id":"long-island"},{"areas":[{"lat":34.0305,"lng":-118.318,"name":"Los Angeles","id":"los-angeles"},{"lat":34.0745,"lng":-118.011,"name":"San Gabriel Valley","id":"san-gabriel-valley"},{"lat":34.2221,"lng":-118.446,"name":"San Fernando Valley","id":"san-fernando-valley"}],"isNowMerchantEnabled":true,"lat":34.0522,"timezoneIdentifier":"America/Los_Angeles","defaultLocale":"en","isNowCustomerEnabled":true,"isPresenceEnabled":false,"lng":-118.243,"timezoneOffsetInSeconds":-28800,"timezone":"Pacific Time (US & Canada)","country":"USA","isReserveEnabled":true,"name":"Los Angeles","uuid":"e51a40b7-2ad2-4fe5-9121-e812c0c3202d","id":"los-angeles"},{"areas":[],"isNowMerchantEnabled":false,"lat":38.2542,"timezoneIdentifier":"America/New_York","defaultLocale":"en","isNowCustomerEnabled":false,"isPresenceEnabled":false,"lng":-85.7594,"timezoneOffsetInSeconds":-18000,"timezone":"Eastern Time (US & Canada)","country":"USA","isReserveEnabled":false,"name":"Louisville","uuid":"a077299a-6ae1-42f9-87b7-3123d64a3538","id":"louisville"},{"areas":[],"isNowMerchantEnabled":false,"lat":33.5779,"timezoneIdentifier":"America/Chicago","defaultLocale":"en","isNowCustomerEnabled":false,"isPresenceEnabled":false,"lng":-101.855,"timezoneOffsetInSeconds":-21600,"timezone":"Central Time (US & Canada)","country":"USA","isReserveEnabled":false,"name":"Lubbock","uuid":"5f2b4c45-f1e4-43fa-b738-a10475ffa03a","id":"lubbock"},{"areas":[],"isNowMerchantEnabled":false,"lat":32.8407,"timezoneIdentifier":"America/New_York","defaultLocale":"en","isNowCustomerEnabled":false,"isPresenceEnabled":false,"lng":-83.6324,"timezoneOffsetInSeconds":-18000,"timezone":"Eastern Time (US & Canada)","country":"USA","isReserveEnabled":false,"name":"Macon","uuid":"26917187-0a75-426f-ba6b-916f3b6291a5","id":"macon"},{"areas":[],"isNowMerchantEnabled":false,"lat":43.0731,"timezoneIdentifier":"America/Chicago","defaultLocale":"en","isNowCustomerEnabled":false,"isPresenceEnabled":false,"lng":-89.4012,"timezoneOffsetInSeconds":-21600,"timezone":"Central Time (US & Canada)","country":"USA","isReserveEnabled":false,"name":"Madison","uuid":"3d91ec58-a26c-450b-bdaf-57b8a79345fe","id":"madison"},{"areas":[],"isNowMerchantEnabled":false,"lat":35.1495,"timezoneIdentifier":"America/Chicago","defaultLocale":"en","isNowCustomerEnabled":false,"isPresenceEnabled":false,"lng":-90.049,"timezoneOffsetInSeconds":-21600,"timezone":"Central Time (US & Canada)","country":"USA","isReserveEnabled":false,"name":"Memphis","uuid":"6063da0b-39f5-4b3a-b098-51d71a6f62ca","id":"memphis"},{"areas":[],"isNowMerchantEnabled":true,"lat":25.7743,"timezoneIdentifier":"America/New_York","defaultLocale":"en","isNowCustomerEnabled":true,"isPresenceEnabled":false,"lng":-80.1903,"timezoneOffsetInSeconds":-18000,"timezone":"Eastern Time (US & Canada)","country":"USA","isReserveEnabled":true,"name":"Miami","uuid":"d004a6dc-f3f6-483f-8625-b96a6dfa35ef","id":"miami"},{"areas":[],"isNowMerchantEnabled":false,"lat":31.9727,"timezoneIdentifier":"America/Chicago","defaultLocale":"en","isNowCustomerEnabled":false,"isPresenceEnabled":false,"lng":-102.392,"timezoneOffsetInSeconds":-21600,"timezone":"Central Time (US & Canada)","country":"USA","isReserveEnabled":false,"name":"Midland / Odessa","uuid":"e6812fe9-01e1-462f-bf8f-2a06f243b3f9","id":"midland-odessa"},{"areas":[],"isNowMerchantEnabled":true,"lat":43.0389,"timezoneIdentifier":"America/Chicago","defaultLocale":"en","isNowCustomerEnabled":true,"isPresenceEnabled":false,"lng":-87.9065,"timezoneOffsetInSeconds":-21600,"timezone":"Central Time (US & Canada)","country":"USA","isReserveEnabled":false,"name":"Milwaukee","uuid":"2fb6c3d5-696b-46cd-bac8-6b65d3a0718f","id":"milwaukee"},{"areas":[],"isNowMerchantEnabled":true,"lat":44.98,"timezoneIdentifier":"America/Chicago","defaultLocale":"en","isNowCustomerEnabled":true,"isPresenceEnabled":false,"lng":-93.2638,"timezoneOffsetInSeconds":-21600,"timezone":"Central Time (US & Canada)","country":"USA","isReserveEnabled":false,"name":"Minneapolis / St Paul","uuid":"5ad0a361-8928-4563-a51d-410921888971","id":"minneapolis-stpaul"},{"areas":[],"isNowMerchantEnabled":false,"lat":30.6944,"timezoneIdentifier":"America/Chicago","defaultLocale":"en","isNowCustomerEnabled":false,"isPresenceEnabled":false,"lng":-88.0431,"timezoneOffsetInSeconds":-21600,"timezone":"Central Time (US & Canada)","country":"USA","isReserveEnabled":false,"name":"Mobile / Baldwin County","uuid":"01b82ba4-b271-4ef1-b114-db3745031495","id":"mobile-baldwin-county"},{"areas":[],"isNowMerchantEnabled":false,"lat":37.6391,"timezoneIdentifier":"America/Los_Angeles","defaultLocale":"en","isNowCustomerEnabled":false,"isPresenceEnabled":false,"lng":-120.997,"timezoneOffsetInSeconds":-28800,"timezone":"Pacific Time (US & Canada)","country":"USA","isReserveEnabled":false,"name":"Modesto","uuid":"96d2a9cf-2903-49ab-a185-54290a01dde1","id":"modesto"},{"areas":[],"isNowMerchantEnabled":false,"lat":32.3668,"timezoneIdentifier":"America/Chicago","defaultLocale":"en","isNowCustomerEnabled":false,"isPresenceEnabled":false,"lng":-86.3,"timezoneOffsetInSeconds":-21600,"timezone":"Central Time (US & Canada)","country":"USA","isReserveEnabled":false,"name":"Montgomery","uuid":"9ec5aeac-d63f-4c2c-b224-a60195167652","id":"montgomery"},{"areas":[],"isNowMerchantEnabled":false,"lat":38.4405,"timezoneIdentifier":"America/Los_Angeles","defaultLocale":"en","isNowCustomerEnabled":false,"isPresenceEnabled":false,"lng":-122.714,"timezoneOffsetInSeconds":-28800,"timezone":"Pacific Time (US & Canada)","country":"USA","isReserveEnabled":true,"name":"Napa / Sonoma","uuid":"9308f56f-bbee-4aed-98cb-7949314b4083","id":"napa-sonoma"},{"areas":[],"isNowMerchantEnabled":false,"lat":26.142,"timezoneIdentifier":"America/New_York","defaultLocale":"en","isNowCustomerEnabled":false,"isPresenceEnabled":false,"lng":-81.7948,"timezoneOffsetInSeconds":-18000,"timezone":"Eastern Time (US & Canada)","country":"USA","isReserveEnabled":false,"name":"Naples","uuid":"a7997ceb-f06c-45ec-b446-62e53703ac8f","id":"naples"},{"areas":[],"isNowMerchantEnabled":false,"lat":36.1659,"timezoneIdentifier":"America/Chicago","defaultLocale":"en","isNowCustomerEnabled":false,"isPresenceEnabled":false,"lng":-86.7844,"timezoneOffsetInSeconds":-21600,"timezone":"Central Time (US & Canada)","country":"USA","isReserveEnabled":false,"name":"Nashville","uuid":"3cd1069e-793b-4b4c-9c08-e6cf95c560bd","id":"nashville"},{"areas":[],"isNowMerchantEnabled":false,"lat":29.9546,"timezoneIdentifier":"America/Chicago","defaultLocale":"en","isNowCustomerEnabled":false,"isPresenceEnabled":false,"lng":-90.0751,"timezoneOffsetInSeconds":-21600,"timezone":"Central Time (US & Canada)","country":"USA","isReserveEnabled":false,"name":"New Orleans","uuid":"99b4c876-8980-42d9-8296-f24fe56b70db","id":"new-orleans"},{"areas":[],"isNowMerchantEnabled":true,"lat":40.7561,"timezoneIdentifier":"America/New_York","defaultLocale":"en","isNowCustomerEnabled":true,"isPresenceEnabled":false,"lng":-73.987,"timezoneOffsetInSeconds":-18000,"timezone":"Eastern Time (US & Canada)","country":"USA","isReserveEnabled":true,"name":"New York City","uuid":"6b656bbe-cf00-4776-97d6-cab26c15b96b","id":"new-york"},{"areas":[],"isNowMerchantEnabled":true,"lat":40.9598,"timezoneIdentifier":"America/New_York","defaultLocale":"en","isNowCustomerEnabled":true,"isPresenceEnabled":false,"lng":-74.2219,"timezoneOffsetInSeconds":-18000,"timezone":"Eastern Time (US & Canada)","country":"USA","isReserveEnabled":true,"name":"North Jersey","uuid":"3bdc0449-2bd6-4f6e-810d-16b0e83050be","id":"north-jersey"},{"areas":[],"isNowMerchantEnabled":false,"lat":29.1872,"timezoneIdentifier":"America/New_York","defaultLocale":"en","isNowCustomerEnabled":false,"isPresenceEnabled":false,"lng":-82.1401,"timezoneOffsetInSeconds":-18000,"timezone":"Eastern Time (US & Canada)","country":"USA","isReserveEnabled":false,"name":"Ocala","uuid":"8ddb01b8-f117-44b7-87cb-24d70de376c6","id":"ocala"},{"areas":[],"isNowMerchantEnabled":false,"lat":41.223,"timezoneIdentifier":"America/Denver","defaultLocale":"en","isNowCustomerEnabled":false,"isPresenceEnabled":false,"lng":-111.974,"timezoneOffsetInSeconds":-25200,"timezone":"Mountain Time (US & Canada)","country":"USA","isReserveEnabled":false,"name":"Ogden","uuid":"f123624a-33c1-4e5c-98f1-9f220786692c","id":"ogden"},{"areas":[],"isNowMerchantEnabled":false,"lat":35.4676,"timezoneIdentifier":"America/Chicago","defaultLocale":"en","isNowCustomerEnabled":false,"isPresenceEnabled":false,"lng":-97.5164,"timezoneOffsetInSeconds":-21600,"timezone":"Central Time (US & Canada)","country":"USA","isReserveEnabled":false,"name":"Oklahoma City","uuid":"90be8215-725b-49e6-9b56-99d938964b13","id":"oklahoma-city"},{"areas":[],"isNowMerchantEnabled":false,"lat":41.254,"timezoneIdentifier":"America/Chicago","defaultLocale":"en","isNowCustomerEnabled":false,"isPresenceEnabled":false,"lng":-95.9993,"timezoneOffsetInSeconds":-21600,"timezone":"Central Time (US & Canada)","country":"USA","isReserveEnabled":false,"name":"Omaha","uuid":"b6ffc750-b5f3-4927-8ec4-e4f2f8a43249","id":"omaha"},{"areas":[],"isNowMerchantEnabled":true,"lat":33.7456,"timezoneIdentifier":"America/Los_Angeles","defaultLocale":"en","isNowCustomerEnabled":true,"isPresenceEnabled":false,"lng":-117.868,"timezoneOffsetInSeconds":-28800,"timezone":"Pacific Time (US & Canada)","country":"USA","isReserveEnabled":true,"name":"Orange County","uuid":"c0b27714-9f0c-4f17-a335-336266273b29","id":"orange-county"},{"areas":[],"isNowMerchantEnabled":true,"lat":28.5383,"timezoneIdentifier":"America/New_York","defaultLocale":"en","isNowCustomerEnabled":true,"isPresenceEnabled":false,"lng":-81.3792,"timezoneOffsetInSeconds":-18000,"timezone":"Eastern Time (US & Canada)","country":"USA","isReserveEnabled":false,"name":"Orlando","uuid":"a9839dd8-1118-4ac3-81dc-7b6881f5d1ba","id":"orlando"},{"areas":[],"isNowMerchantEnabled":false,"lat":45.4116,"timezoneIdentifier":"America/New_York","defaultLocale":"en","isNowCustomerEnabled":false,"isPresenceEnabled":false,"lng":-75.6982,"timezoneOffsetInSeconds":-18000,"timezone":"Eastern Time (US & Canada)","country":"Canada","isReserveEnabled":false,"name":"Ottawa","uuid":"aa9e8f09-24d0-44fa-8b40-6007e5b7cff5","id":"ottawa"},{"areas":[],"isNowMerchantEnabled":true,"lat":26.7056,"timezoneIdentifier":"America/New_York","defaultLocale":"en","isNowCustomerEnabled":true,"isPresenceEnabled":false,"lng":-80.0364,"timezoneOffsetInSeconds":-18000,"timezone":"Eastern Time (US & Canada)","country":"USA","isReserveEnabled":false,"name":"Palm Beach","uuid":"b171304e-f329-4aa1-8f10-185002278de6","id":"palm-beach"},{"areas":[],"isNowMerchantEnabled":false,"lat":30.4213,"timezoneIdentifier":"America/Chicago","defaultLocale":"en","isNowCustomerEnabled":false,"isPresenceEnabled":false,"lng":-87.2169,"timezoneOffsetInSeconds":-21600,"timezone":"Central Time (US & Canada)","country":"USA","isReserveEnabled":false,"name":"Pensacola / Emerald Coast","uuid":"b08d173a-3304-40db-9fb2-22c006d954be","id":"pensacola"},{"areas":[],"isNowMerchantEnabled":true,"lat":39.9516,"timezoneIdentifier":"America/New_York","defaultLocale":"en","isNowCustomerEnabled":true,"isPresenceEnabled":false,"lng":-75.1638,"timezoneOffsetInSeconds":-18000,"timezone":"Eastern Time (US & Canada)","country":"USA","isReserveEnabled":true,"name":"Philadelphia","uuid":"8bac9429-193d-434c-9760-892fc1a5d03d","id":"philadelphia"},{"areas":[],"isNowMerchantEnabled":true,"lat":33.4483,"timezoneIdentifier":"America/Phoenix","defaultLocale":"en","isNowCustomerEnabled":true,"isPresenceEnabled":false,"lng":-112.074,"timezoneOffsetInSeconds":-25200,"timezone":"Arizona","country":"USA","isReserveEnabled":false,"name":"Phoenix","uuid":"0d55ef12-1520-4b99-9995-2cad5da80d94","id":"phoenix"},{"areas":[],"isNowMerchantEnabled":false,"lat":36.0726,"timezoneIdentifier":"America/New_York","defaultLocale":"en","isNowCustomerEnabled":false,"isPresenceEnabled":false,"lng":-79.792,"timezoneOffsetInSeconds":-18000,"timezone":"Eastern Time (US & Canada)","country":"USA","isReserveEnabled":false,"name":"Piedmont Triad","uuid":"3fb9ff8e-38e8-41c6-bc54-f85193c8cba5","id":"piedmont-triad"},{"areas":[],"isNowMerchantEnabled":false,"lat":40.4406,"timezoneIdentifier":"America/New_York","defaultLocale":"en","isNowCustomerEnabled":false,"isPresenceEnabled":false,"lng":-79.9959,"timezoneOffsetInSeconds":-18000,"timezone":"Eastern Time (US & Canada)","country":"USA","isReserveEnabled":false,"name":"Pittsburgh","uuid":"db8d3560-497b-4219-8921-b26313a186ac","id":"pittsburgh"},{"areas":[],"isNowMerchantEnabled":true,"lat":45.5235,"timezoneIdentifier":"America/Los_Angeles","defaultLocale":"en","isNowCustomerEnabled":true,"isPresenceEnabled":false,"lng":-122.676,"timezoneOffsetInSeconds":-28800,"timezone":"Pacific Time (US & Canada)","country":"USA","isReserveEnabled":false,"name":"Portland","uuid":"ffc3f75f-db83-4782-a930-b6372178451b","id":"portland"},{"areas":[],"isNowMerchantEnabled":false,"lat":43.6615,"timezoneIdentifier":"America/New_York","defaultLocale":"en","isNowCustomerEnabled":false,"isPresenceEnabled":false,"lng":-70.2553,"timezoneOffsetInSeconds":-18000,"timezone":"Eastern Time (US & Canada)","country":"USA","isReserveEnabled":false,"name":"Portland, ME","uuid":"b64d9b66-d5dc-4e42-a460-e0f5fa7ff6ce","id":"portland-me"},{"areas":[],"isNowMerchantEnabled":false,"lat":41.824,"timezoneIdentifier":"America/New_York","defaultLocale":"en","isNowCustomerEnabled":false,"isPresenceEnabled":false,"lng":-71.4128,"timezoneOffsetInSeconds":-18000,"timezone":"Eastern Time (US & Canada)","country":"USA","isReserveEnabled":false,"name":"Providence","uuid":"6cbfdaf8-dc25-4680-b977-1807781eb873","id":"providence"},{"areas":[],"isNowMerchantEnabled":true,"lat":35.7721,"timezoneIdentifier":"America/New_York","defaultLocale":"en","isNowCustomerEnabled":true,"isPresenceEnabled":false,"lng":-78.6386,"timezoneOffsetInSeconds":-18000,"timezone":"Eastern Time (US & Canada)","country":"USA","isReserveEnabled":false,"name":"Raleigh / Durham","uuid":"07aef8f7-553e-4f91-ab89-4d7b0a7703e8","id":"raleigh-durham"},{"areas":[],"isNowMerchantEnabled":false,"lat":50.45,"timezoneIdentifier":"America/Chicago","defaultLocale":"en","isNowCustomerEnabled":false,"isPresenceEnabled":false,"lng":-104.61,"timezoneOffsetInSeconds":-21600,"timezone":"Central Time (US & Canada)","country":"Canada","isReserveEnabled":false,"name":"Regina","uuid":"45db65fe-cf7f-4cc8-a61c-1d5519d96522","id":"regina"},{"areas":[],"isNowMerchantEnabled":false,"lat":39.5296,"timezoneIdentifier":"America/Los_Angeles","defaultLocale":"en","isNowCustomerEnabled":false,"isPresenceEnabled":false,"lng":-119.814,"timezoneOffsetInSeconds":-28800,"timezone":"Pacific Time (US & Canada)","country":"USA","isReserveEnabled":false,"name":"Reno","uuid":"efa6ac01-dbc1-4843-8de6-f51192c26c0f","id":"reno"},{"areas":[],"isNowMerchantEnabled":false,"lat":37.533,"timezoneIdentifier":"America/New_York","defaultLocale":"en","isNowCustomerEnabled":false,"isPresenceEnabled":false,"lng":-77.467,"timezoneOffsetInSeconds":-18000,"timezone":"Eastern Time (US & Canada)","country":"USA","isReserveEnabled":false,"name":"Richmond","uuid":"47541260-2ca3-4bb2-b9d6-715e91bfbee6","id":"richmond"},{"areas":[],"isNowMerchantEnabled":false,"lat":26.2034,"timezoneIdentifier":"America/Chicago","defaultLocale":"en","isNowCustomerEnabled":false,"isPresenceEnabled":false,"lng":-98.23,"timezoneOffsetInSeconds":-21600,"timezone":"Central Time (US & Canada)","country":"USA","isReserveEnabled":false,"name":"Rio Grande Valley","uuid":"b4167511-558c-45f1-ae8d-7465c92d2c3d","id":"rio-grande-valley"},{"areas":[],"isNowMerchantEnabled":false,"lat":37.271,"timezoneIdentifier":"America/New_York","defaultLocale":"en","isNowCustomerEnabled":false,"isPresenceEnabled":false,"lng":-79.9414,"timezoneOffsetInSeconds":-18000,"timezone":"Eastern Time (US & Canada)","country":"USA","isReserveEnabled":false,"name":"Roanoke","uuid":"1e62461b-af49-4c9a-86d2-19e42a78f858","id":"roanoke"},{"areas":[],"isNowMerchantEnabled":false,"lat":43.1548,"timezoneIdentifier":"America/New_York","defaultLocale":"en","isNowCustomerEnabled":false,"isPresenceEnabled":false,"lng":-77.6156,"timezoneOffsetInSeconds":-18000,"timezone":"Eastern Time (US & Canada)","country":"USA","isReserveEnabled":false,"name":"Rochester","uuid":"8d82997d-e1fe-46f2-ad52-16497f6ec379","id":"rochester"},{"areas":[],"isNowMerchantEnabled":false,"lat":42.2711,"timezoneIdentifier":"America/Chicago","defaultLocale":"en","isNowCustomerEnabled":false,"isPresenceEnabled":false,"lng":-89.094,"timezoneOffsetInSeconds":-21600,"timezone":"Central Time (US & Canada)","country":"USA","isReserveEnabled":false,"name":"Rockford","uuid":"a667012f-66ee-4490-bae8-837d86801f1a","id":"rockford"},{"areas":[],"isNowMerchantEnabled":false,"lat":38.5816,"timezoneIdentifier":"America/Los_Angeles","defaultLocale":"en","isNowCustomerEnabled":false,"isPresenceEnabled":false,"lng":-121.494,"timezoneOffsetInSeconds":-28800,"timezone":"Pacific Time (US & Canada)","country":"USA","isReserveEnabled":false,"name":"Sacramento","uuid":"4f62c20b-0bdb-4108-bfe2-64fcbbe3c3d1","id":"sacramento"},{"areas":[],"isNowMerchantEnabled":false,"lat":44.9429,"timezoneIdentifier":"America/Los_Angeles","defaultLocale":"en","isNowCustomerEnabled":false,"isPresenceEnabled":false,"lng":-123.035,"timezoneOffsetInSeconds":-28800,"timezone":"Pacific Time (US & Canada)","country":"USA","isReserveEnabled":false,"name":"Salem OR","uuid":"aca005fa-f0ca-4601-98cc-ced1092c51e2","id":"salem-or"},{"areas":[],"isNowMerchantEnabled":false,"lat":40.7608,"timezoneIdentifier":"America/Denver","defaultLocale":"en","isNowCustomerEnabled":false,"isPresenceEnabled":false,"lng":-111.891,"timezoneOffsetInSeconds":-25200,"timezone":"Mountain Time (US & Canada)","country":"USA","isReserveEnabled":false,"name":"Salt Lake City","uuid":"8da4f36e-c450-476b-96d3-124bc4a3e900","id":"salt-lake-city"},{"areas":[],"isNowMerchantEnabled":false,"lat":31.4406,"timezoneIdentifier":"America/Chicago","defaultLocale":"en","isNowCustomerEnabled":false,"isPresenceEnabled":false,"lng":-100.452,"timezoneOffsetInSeconds":-21600,"timezone":"Central Time (US & Canada)","country":"USA","isReserveEnabled":false,"name":"San Angelo","uuid":"f91eccc9-02a4-437d-92c2-1f0300303205","id":"san-angelo"},{"areas":[],"isNowMerchantEnabled":false,"lat":29.4241,"timezoneIdentifier":"America/Chicago","defaultLocale":"en","isNowCustomerEnabled":false,"isPresenceEnabled":false,"lng":-98.4936,"timezoneOffsetInSeconds":-21600,"timezone":"Central Time (US & Canada)","country":"USA","isReserveEnabled":false,"name":"San Antonio","uuid":"073f9059-b860-44de-8564-d020ff818acd","id":"san-antonio"},{"areas":[],"isNowMerchantEnabled":true,"lat":32.7188,"timezoneIdentifier":"America/Los_Angeles","defaultLocale":"en","isNowCustomerEnabled":true,"isPresenceEnabled":false,"lng":-117.164,"timezoneOffsetInSeconds":-28800,"timezone":"Pacific Time (US & Canada)","country":"USA","isReserveEnabled":false,"name":"San Diego","uuid":"95b8a73f-23fc-4250-8020-d641a9c1f96f","id":"san-diego"},{"areas":[{"lat":37.7808,"lng":-122.418,"name":"San Francisco","id":"san-francisco"},{"lat":37.8151,"lng":-122.24,"name":"East Bay","id":"east-bay"}],"isNowMerchantEnabled":true,"lat":37.7752,"timezoneIdentifier":"America/Los_Angeles","defaultLocale":"en","isNowCustomerEnabled":true,"isPresenceEnabled":true,"lng":-122.419,"timezoneOffsetInSeconds":-28800,"timezone":"Pacific Time (US & Canada)","country":"USA","isReserveEnabled":true,"name":"San Francisco","uuid":"04fc4937-96a6-46ed-895a-94e2dc47734a","id":"san-francisco"},{"areas":[],"isNowMerchantEnabled":true,"lat":37.3394,"timezoneIdentifier":"America/Los_Angeles","defaultLocale":"en","isNowCustomerEnabled":true,"isPresenceEnabled":true,"lng":-121.895,"timezoneOffsetInSeconds":-28800,"timezone":"Pacific Time (US & Canada)","country":"USA","isReserveEnabled":true,"name":"San Jose","uuid":"c06d3650-668b-40f6-8306-ab2d6bb965f3","id":"san-jose"},{"areas":[],"isNowMerchantEnabled":false,"lat":34.3996,"timezoneIdentifier":"America/Los_Angeles","defaultLocale":"en","isNowCustomerEnabled":false,"isPresenceEnabled":false,"lng":-119.713,"timezoneOffsetInSeconds":-28800,"timezone":"Pacific Time (US & Canada)","country":"USA","isReserveEnabled":false,"name":"Santa Barbara","uuid":"db99278a-e813-4ec5-b97d-dde8729193a7","id":"santa-barbara"},{"areas":[],"isNowMerchantEnabled":true,"lat":34.3917,"timezoneIdentifier":"America/Los_Angeles","defaultLocale":"en","isNowCustomerEnabled":true,"isPresenceEnabled":false,"lng":-118.543,"timezoneOffsetInSeconds":-28800,"timezone":"Pacific Time (US & Canada)","country":"USA","isReserveEnabled":true,"name":"Santa Clarita","uuid":"5b6dbf7f-f1eb-471e-b980-ad4796dea9c4","id":"santa-clarita"},{"areas":[],"isNowMerchantEnabled":false,"lat":36.9741,"timezoneIdentifier":"America/Los_Angeles","defaultLocale":"en","isNowCustomerEnabled":false,"isPresenceEnabled":false,"lng":-122.031,"timezoneOffsetInSeconds":-28800,"timezone":"Pacific Time (US & Canada)","country":"USA","isReserveEnabled":false,"name":"Santa Cruz / Monterey","uuid":"ce34a6a2-e155-4853-a571-cb3624dda5b4","id":"santa-cruz"},{"areas":[],"isNowMerchantEnabled":false,"lat":52.1344,"timezoneIdentifier":"America/Chicago","defaultLocale":"en","isNowCustomerEnabled":false,"isPresenceEnabled":false,"lng":-106.648,"timezoneOffsetInSeconds":-21600,"timezone":"Central Time (US & Canada)","country":"Canada","isReserveEnabled":false,"name":"Saskatoon","uuid":"6341bebb-c7d6-460f-9dd3-5c373460c3e6","id":"saskatoon"},{"areas":[],"isNowMerchantEnabled":false,"lat":32.0835,"timezoneIdentifier":"America/New_York","defaultLocale":"en","isNowCustomerEnabled":false,"isPresenceEnabled":false,"lng":-81.0998,"timezoneOffsetInSeconds":-18000,"timezone":"Eastern Time (US & Canada)","country":"USA","isReserveEnabled":false,"name":"Savannah / Hilton Head","uuid":"9fca545b-5a43-49ac-8ce1-5eee776fe126","id":"savannah-hilton-head"},{"areas":[{"lat":47.249,"lng":-122.465,"name":"Tacoma","id":"tacoma"},{"lat":47.6113,"lng":-122.333,"name":"Seattle","id":"seattle"}],"isNowMerchantEnabled":true,"lat":47.621,"timezoneIdentifier":"America/Los_Angeles","defaultLocale":"en","isNowCustomerEnabled":true,"isPresenceEnabled":false,"lng":-122.347,"timezoneOffsetInSeconds":-28800,"timezone":"Pacific Time (US & Canada)","country":"USA","isReserveEnabled":false,"name":"Seattle","uuid":"8082aacc-9cce-45f9-ba3d-c04171ac95e8","id":"seattle"},{"areas":[],"isNowMerchantEnabled":false,"lat":32.5252,"timezoneIdentifier":"America/Chicago","defaultLocale":"en","isNowCustomerEnabled":false,"isPresenceEnabled":false,"lng":-93.7502,"timezoneOffsetInSeconds":-21600,"timezone":"Central Time (US & Canada)","country":"USA","isReserveEnabled":false,"name":"Shreveport / Bossier","uuid":"b9ef1e48-4fab-4002-97bd-c0be97075109","id":"shreveport-bossier"},{"areas":[],"isNowMerchantEnabled":false,"lat":43.55,"timezoneIdentifier":"America/Chicago","defaultLocale":"en","isNowCustomerEnabled":false,"isPresenceEnabled":false,"lng":-96.7003,"timezoneOffsetInSeconds":-21600,"timezone":"Central Time (US & Canada)","country":"USA","isReserveEnabled":false,"name":"Sioux Falls","uuid":"792b4132-0424-44ea-be41-8a65fb889e17","id":"sioux-falls"},{"areas":[],"isNowMerchantEnabled":false,"lat":41.6834,"timezoneIdentifier":"America/New_York","defaultLocale":"en","isNowCustomerEnabled":false,"isPresenceEnabled":false,"lng":-86.25,"timezoneOffsetInSeconds":-18000,"timezone":"Eastern Time (US & Canada)","country":"USA","isReserveEnabled":false,"name":"South Bend","uuid":"e839a186-6262-43cc-a2c7-4e159afa96ba","id":"south-bend"},{"areas":[],"isNowMerchantEnabled":false,"lat":31.5785,"timezoneIdentifier":"America/New_York","defaultLocale":"en","isNowCustomerEnabled":false,"isPresenceEnabled":false,"lng":-84.1557,"timezoneOffsetInSeconds":-18000,"timezone":"Eastern Time (US & Canada)","country":"USA","isReserveEnabled":false,"name":"Southern Georgia","uuid":"f99e7058-08ce-416b-ad08-00f674e24e71","id":"albany-ga"},{"areas":[],"isNowMerchantEnabled":false,"lat":47.6588,"timezoneIdentifier":"America/Los_Angeles","defaultLocale":"en","isNowCustomerEnabled":false,"isPresenceEnabled":false,"lng":-117.426,"timezoneOffsetInSeconds":-28800,"timezone":"Pacific Time (US & Canada)","country":"USA","isReserveEnabled":false,"name":"Spokane / Coeur d'Alene","uuid":"575ed34e-70ff-4741-9692-931984de9cc6","id":"spokane-coeur-dalene"},{"areas":[],"isNowMerchantEnabled":false,"lat":37.2153,"timezoneIdentifier":"America/Chicago","defaultLocale":"en","isNowCustomerEnabled":false,"isPresenceEnabled":false,"lng":-93.2982,"timezoneOffsetInSeconds":-21600,"timezone":"Central Time (US & Canada)","country":"USA","isReserveEnabled":false,"name":"Springfield MO","uuid":"250b4483-cb13-471b-8b31-130350640f4d","id":"springfield-mo"},{"areas":[],"isNowMerchantEnabled":false,"lat":42.1015,"timezoneIdentifier":"America/New_York","defaultLocale":"en","isNowCustomerEnabled":false,"isPresenceEnabled":false,"lng":-72.5898,"timezoneOffsetInSeconds":-18000,"timezone":"Eastern Time (US & Canada)","country":"USA","isReserveEnabled":false,"name":"Springfield, MA","uuid":"cf0a0976-9ba4-4085-9e37-b08db2257dc0","id":"springfield-ma"},{"areas":[],"isNowMerchantEnabled":false,"lat":43.588,"timezoneIdentifier":"America/New_York","defaultLocale":"en","isNowCustomerEnabled":false,"isPresenceEnabled":false,"lng":-77.7452,"timezoneOffsetInSeconds":-18000,"timezone":"Eastern Time (US & Canada)","country":"Canada","isReserveEnabled":false,"name":"St Catharines-Niagara","uuid":"bbebfd2b-a64a-4a74-8762-340f88760823","id":"stcatharines-niagara"},{"areas":[],"isNowMerchantEnabled":false,"lat":47.5615,"timezoneIdentifier":"America/St_Johns","defaultLocale":"en","isNowCustomerEnabled":false,"isPresenceEnabled":false,"lng":-52.7127,"timezoneOffsetInSeconds":-12600,"timezone":"Newfoundland","country":"Canada","isReserveEnabled":false,"name":"St John's","uuid":"ab1cde80-3588-4b37-8309-39ad875c4fcf","id":"st-johns"},{"areas":[],"isNowMerchantEnabled":true,"lat":38.6275,"timezoneIdentifier":"America/Chicago","defaultLocale":"en","isNowCustomerEnabled":true,"isPresenceEnabled":false,"lng":-90.1984,"timezoneOffsetInSeconds":-21600,"timezone":"Central Time (US & Canada)","country":"USA","isReserveEnabled":false,"name":"St Louis","uuid":"9e3b4f55-e8b9-4188-97a6-cbd2548e6aa9","id":"stlouis"},{"areas":[],"isNowMerchantEnabled":false,"lat":37.9577,"timezoneIdentifier":"America/Los_Angeles","defaultLocale":"en","isNowCustomerEnabled":false,"isPresenceEnabled":false,"lng":-121.291,"timezoneOffsetInSeconds":-28800,"timezone":"Pacific Time (US & Canada)","country":"USA","isReserveEnabled":false,"name":"Stockton","uuid":"dd486ef0-502c-4e91-b2e5-0b0b1bdac912","id":"stockton"},{"areas":[],"isNowMerchantEnabled":false,"lat":46.49,"timezoneIdentifier":"America/New_York","defaultLocale":"en","isNowCustomerEnabled":false,"isPresenceEnabled":false,"lng":-81.01,"timezoneOffsetInSeconds":-18000,"timezone":"Eastern Time (US & Canada)","country":"Canada","isReserveEnabled":false,"name":"Sudbury / North Bay","uuid":"90a4fd2c-53e2-4597-abaa-da1f65d0d82f","id":"sudbury"},{"areas":[],"isNowMerchantEnabled":false,"lat":43.0481,"timezoneIdentifier":"America/New_York","defaultLocale":"en","isNowCustomerEnabled":false,"isPresenceEnabled":false,"lng":-76.1474,"timezoneOffsetInSeconds":-18000,"timezone":"Eastern Time (US & Canada)","country":"USA","isReserveEnabled":false,"name":"Syracuse","uuid":"25bc4e73-2209-422f-9949-a865e502e451","id":"syracuse"},{"areas":[],"isNowMerchantEnabled":false,"lat":30.4383,"timezoneIdentifier":"America/New_York","defaultLocale":"en","isNowCustomerEnabled":false,"isPresenceEnabled":false,"lng":-84.2807,"timezoneOffsetInSeconds":-18000,"timezone":"Eastern Time (US & Canada)","country":"USA","isReserveEnabled":false,"name":"Tallahassee","uuid":"2d606e99-cb02-4846-8622-dece2b14f437","id":"tallahassee"},{"areas":[],"isNowMerchantEnabled":false,"lat":27.9814,"timezoneIdentifier":"America/New_York","defaultLocale":"en","isNowCustomerEnabled":false,"isPresenceEnabled":false,"lng":-82.4511,"timezoneOffsetInSeconds":-18000,"timezone":"Eastern Time (US & Canada)","country":"USA","isReserveEnabled":false,"name":"Tampa Bay Area","uuid":"a6d32332-8fe7-4e31-9017-f8886b3b6c68","id":"tampa-bay-area"},{"areas":[],"isNowMerchantEnabled":false,"lat":41.6639,"timezoneIdentifier":"America/New_York","defaultLocale":"en","isNowCustomerEnabled":false,"isPresenceEnabled":false,"lng":-83.5552,"timezoneOffsetInSeconds":-18000,"timezone":"Eastern Time (US & Canada)","country":"USA","isReserveEnabled":false,"name":"Toledo","uuid":"084629c5-526f-464f-93e1-36bf41fddde8","id":"toledo"},{"areas":[],"isNowMerchantEnabled":false,"lat":39.0558,"timezoneIdentifier":"America/Chicago","defaultLocale":"en","isNowCustomerEnabled":false,"isPresenceEnabled":false,"lng":-95.689,"timezoneOffsetInSeconds":-21600,"timezone":"Central Time (US & Canada)","country":"USA","isReserveEnabled":false,"name":"Topeka / Lawrence","uuid":"4a2aefd6-658b-45ae-8322-e24a13aefbf8","id":"topeka-lawrence"},{"areas":[],"isNowMerchantEnabled":true,"lat":43.6702,"timezoneIdentifier":"America/New_York","defaultLocale":"en","isNowCustomerEnabled":true,"isPresenceEnabled":false,"lng":-79.3868,"timezoneOffsetInSeconds":-18000,"timezone":"Eastern Time (US & Canada)","country":"Canada","isReserveEnabled":false,"name":"Toronto (GTA)","uuid":"4ddb5e3e-fe51-47fb-8239-295e28409c83","id":"greater-toronto-area"},{"areas":[],"isNowMerchantEnabled":false,"lat":32.2217,"timezoneIdentifier":"America/Los_Angeles","defaultLocale":"en","isNowCustomerEnabled":false,"isPresenceEnabled":false,"lng":-110.926,"timezoneOffsetInSeconds":-28800,"timezone":"Pacific Time (US & Canada)","country":"USA","isReserveEnabled":false,"name":"Tucson","uuid":"ac49ca0c-62ec-405b-a711-7c79f4baabef","id":"tucson"},{"areas":[],"isNowMerchantEnabled":false,"lat":36.154,"timezoneIdentifier":"America/Chicago","defaultLocale":"en","isNowCustomerEnabled":false,"isPresenceEnabled":false,"lng":-95.9928,"timezoneOffsetInSeconds":-21600,"timezone":"Central Time (US & Canada)","country":"USA","isReserveEnabled":false,"name":"Tulsa","uuid":"7739f943-3c24-485f-8580-c6de0ffe1369","id":"tulsa"},{"areas":[],"isNowMerchantEnabled":true,"lat":49.2636,"timezoneIdentifier":"America/Los_Angeles","defaultLocale":"en","isNowCustomerEnabled":true,"isPresenceEnabled":false,"lng":-123.139,"timezoneOffsetInSeconds":-28800,"timezone":"Pacific Time (US & Canada)","country":"Canada","isReserveEnabled":false,"name":"Vancouver","uuid":"562e4b2d-8745-4cd1-9649-5e07f1d87c63","id":"vancouver"},{"areas":[],"isNowMerchantEnabled":false,"lat":34.3705,"timezoneIdentifier":"America/Los_Angeles","defaultLocale":"en","isNowCustomerEnabled":false,"isPresenceEnabled":false,"lng":-119.139,"timezoneOffsetInSeconds":-28800,"timezone":"Pacific Time (US & Canada)","country":"USA","isReserveEnabled":true,"name":"Ventura County","uuid":"d9fb470e-2c79-4f09-ae53-8e3ca3719093","id":"ventura-county"},{"areas":[],"isNowMerchantEnabled":false,"lat":48.4286,"timezoneIdentifier":"America/Los_Angeles","defaultLocale":"en","isNowCustomerEnabled":false,"isPresenceEnabled":false,"lng":-123.366,"timezoneOffsetInSeconds":-28800,"timezone":"Pacific Time (US & Canada)","country":"Canada","isReserveEnabled":false,"name":"Victoria","uuid":"470c4296-3abf-41b3-bbe0-b77d41748638","id":"victoria"},{"areas":[{"lat":38.9066,"lng":-77.0166,"name":"The District","id":"dc-metro"},{"lat":38.8209,"lng":-77.291,"name":"Northern Virginia","id":"northern-virginia"},{"lat":39.0772,"lng":-77.1262,"name":"Montgomery County","id":"montgomery-county"}],"isNowMerchantEnabled":true,"lat":38.8921,"timezoneIdentifier":"America/New_York","defaultLocale":"en","isNowCustomerEnabled":true,"isPresenceEnabled":false,"lng":-77.0241,"timezoneOffsetInSeconds":-18000,"timezone":"Eastern Time (US & Canada)","country":"USA","isReserveEnabled":true,"name":"Washington DC","uuid":"2ec9db1f-2889-4117-9b24-920ea7860f1a","id":"washington-dc"},{"areas":[],"isNowMerchantEnabled":false,"lat":41.122,"timezoneIdentifier":"America/New_York","defaultLocale":"en","isNowCustomerEnabled":false,"isPresenceEnabled":false,"lng":-73.7949,"timezoneOffsetInSeconds":-18000,"timezone":"Eastern Time (US & Canada)","country":"USA","isReserveEnabled":true,"name":"Westchester County","uuid":"4b799509-4075-471a-ac56-e0cc5bfd7121","id":"westchester-county"},{"areas":[],"isNowMerchantEnabled":false,"lat":37.6922,"timezoneIdentifier":"America/Chicago","defaultLocale":"en","isNowCustomerEnabled":false,"isPresenceEnabled":false,"lng":-97.3375,"timezoneOffsetInSeconds":-21600,"timezone":"Central Time (US & Canada)","country":"USA","isReserveEnabled":false,"name":"Wichita","uuid":"581786b7-9a57-415b-b76f-9c0c0d56b9ce","id":"wichita"},{"areas":[],"isNowMerchantEnabled":false,"lat":39.7092,"timezoneIdentifier":"America/New_York","defaultLocale":"en","isNowCustomerEnabled":false,"isPresenceEnabled":false,"lng":-75.6816,"timezoneOffsetInSeconds":-18000,"timezone":"Eastern Time (US & Canada)","country":"USA","isReserveEnabled":true,"name":"Wilmington-Newark","uuid":"93c0df8c-d1e7-4686-8171-f3fda83a6c46","id":"wilmington-newark"},{"areas":[],"isNowMerchantEnabled":false,"lat":42.2927,"timezoneIdentifier":"America/New_York","defaultLocale":"en","isNowCustomerEnabled":false,"isPresenceEnabled":false,"lng":-82.9933,"timezoneOffsetInSeconds":-18000,"timezone":"Eastern Time (US & Canada)","country":"Canada","isReserveEnabled":false,"name":"Windsor","uuid":"7b5f66f5-144c-42f3-b3d0-73b57e5d092c","id":"windsor"},{"areas":[],"isNowMerchantEnabled":false,"lat":49.8861,"timezoneIdentifier":"America/Chicago","defaultLocale":"en","isNowCustomerEnabled":false,"isPresenceEnabled":false,"lng":-97.1529,"timezoneOffsetInSeconds":-21600,"timezone":"Central Time (US & Canada)","country":"Canada","isReserveEnabled":false,"name":"Winnipeg","uuid":"55fd53ad-21f5-4e44-bb99-2e5483e466ee","id":"winnipeg"},{"areas":[],"isNowMerchantEnabled":false,"lat":42.2626,"timezoneIdentifier":"America/New_York","defaultLocale":"en","isNowCustomerEnabled":false,"isPresenceEnabled":false,"lng":-71.8023,"timezoneOffsetInSeconds":-18000,"timezone":"Eastern Time (US & Canada)","country":"USA","isReserveEnabled":true,"name":"Worcester","uuid":"77b5c91c-541a-4b3a-8dbf-aedc1014b8dd","id":"worcester"},{"areas":[],"isNowMerchantEnabled":false,"lat":41.0998,"timezoneIdentifier":"America/New_York","defaultLocale":"en","isNowCustomerEnabled":false,"isPresenceEnabled":false,"lng":-80.6495,"timezoneOffsetInSeconds":-18000,"timezone":"Eastern Time (US & Canada)","country":"USA","isReserveEnabled":false,"name":"Youngstown","uuid":"59c3dd75-1b20-45a3-a10f-2ca63757a82f","id":"youngstown"}]}